[
  {
    "iata": "JFK",
    "name": "John F. Kennedy International Airport",
    "city": "New York",
    "country": "United States",
    "lat": 40.6413,
    "lng": -73.7781,
    "timezone": "America/New_York"
  },
  {
    "iata": "LAX",
    "name": "Los Angeles International Airport",
    "city": "Los Angeles",
    "country": "United States",
    "lat": 33.9416,
    "lng": -118.4085,
    "timezone": "America/Los_Angeles"
  },
  {
    "iata": "ORD",
    "name": "O'Hare International Airport",
    "city": "Chicago",
    "country": "United States",
    "lat": 41.9742,
    "lng": -87.9073,
    "timezone": "America/Chicago"
  },
  {
    "iata": "ATL",
    "name": "Hartsfield-Jackson Atlanta International Airport",
    "city": "Atlanta",
    "country": "United States",
    "lat": 33.6407,
    "lng": -84.4277,
    "timezone": "America/New_York"
  },
  {
    "iata": "DFW",
    "name": "Dallas/Fort Worth International Airport",
    "city": "Dallas",
    "country": "United States",
    "lat": 32.8998,
    "lng": -97.0403,
    "timezone": "America/Chicago"
  },
  {
    "iata": "DEN",
    "name": "Denver International Airport",
    "city": "Denver",
    "country": "United States",
    "lat": 39.8561,
    "lng": -104.6737,
    "timezone": "America/Denver"
  },
  {
    "iata": "SFO",
    "name": "San Francisco International Airport",
    "city": "San Francisco",
    "country": "United States",
    "lat": 37.6213,
    "lng": -122.3790,
    "timezone": "America/Los_Angeles"
  },
  {
    "iata": "SEA",
    "name": "Seattle-Tacoma International Airport",
    "city": "Seattle",
    "country": "United States",
    "lat": 47.4502,
    "lng": -122.3088,
    "timezone": "America/Los_Angeles"
  },
  {
    "iata": "LAS",
    "name": "Harry Reid International Airport",
    "city": "Las Vegas",
    "country": "United States",
    "lat": 36.0840,
    "lng": -115.1537,
    "timezone": "America/Los_Angeles"
  },
  {
    "iata": "MIA",
    "name": "Miami International Airport",
    "city": "Miami",
    "country": "United States",
    "lat": 25.7959,
    "lng": -80.2870,
    "timezone": "America/New_York"
  },
  {
    "iata": "BOS",
    "name": "Logan International Airport",
    "city": "Boston",
    "country": "United States",
    "lat": 42.3656,
    "lng": -71.0096,
    "timezone": "America/New_York"
  },
  {
    "iata": "IAD",
    "name": "Washington Dulles International Airport",
    "city": "Washington D.C.",
    "country": "United States",
    "lat": 38.9531,
    "lng": -77.4565,
    "timezone": "America/New_York"
  },
  {
    "iata": "LHR",
    "name": "London Heathrow Airport",
    "city": "London",
    "country": "United Kingdom",
    "lat": 51.4700,
    "lng": -0.4543,
    "timezone": "Europe/London"
  },
  {
    "iata": "LGW",
    "name": "London Gatwick Airport",
    "city": "London",
    "country": "United Kingdom",
    "lat": 51.1537,
    "lng": -0.1821,
    "timezone": "Europe/London"
  },
  {
    "iata": "CDG",
    "name": "Charles de Gaulle Airport",
    "city": "Paris",
    "country": "France",
    "lat": 49.0097,
    "lng": 2.5479,
    "timezone": "Europe/Paris"
  },
  {
    "iata": "AMS",
    "name": "Amsterdam Airport Schiphol",
    "city": "Amsterdam",
    "country": "Netherlands",
    "lat": 52.3105,
    "lng": 4.7683,
    "timezone": "Europe/Amsterdam"
  },
  {
    "iata": "FRA",
    "name": "Frankfurt Airport",
    "city": "Frankfurt",
    "country": "Germany",
    "lat": 50.0379,
    "lng": 8.5622,
    "timezone": "Europe/Berlin"
  },
  {
    "iata": "MUC",
    "name": "Munich Airport",
    "city": "Munich",
    "country": "Germany",
    "lat": 48.3538,
    "lng": 11.7750,
    "timezone": "Europe/Berlin"
  },
  {
    "iata": "MAD",
    "name": "Adolfo Suárez Madrid-Barajas Airport",
    "city": "Madrid",
    "country": "Spain",
    "lat": 40.4983,
    "lng": -3.5676,
    "timezone": "Europe/Madrid"
  },
  {
    "iata": "BCN",
    "name": "Barcelona-El Prat Airport",
    "city": "Barcelona",
    "country": "Spain",
    "lat": 41.2974,
    "lng": 2.0833,
    "timezone": "Europe/Madrid"
  },
  {
    "iata": "FCO",
    "name": "Leonardo da Vinci-Fiumicino Airport",
    "city": "Rome",
    "country": "Italy",
    "lat": 41.8003,
    "lng": 12.2389,
    "timezone": "Europe/Rome"
  },
  {
    "iata": "VCE",
    "name": "Venice Marco Polo Airport",
    "city": "Venice",
    "country": "Italy",
    "lat": 45.5053,
    "lng": 12.3519,
    "timezone": "Europe/Rome"
  },
  {
    "iata": "IST",
    "name": "Istanbul Airport",
    "city": "Istanbul",
    "country": "Turkey",
    "lat": 41.2753,
    "lng": 28.7519,
    "timezone": "Europe/Istanbul"
  },
  {
    "iata": "DXB",
    "name": "Dubai International Airport",
    "city": "Dubai",
    "country": "United Arab Emirates",
    "lat": 25.2532,
    "lng": 55.3657,
    "timezone": "Asia/Dubai"
  },
  {
    "iata": "DOH",
    "name": "Hamad International Airport",
    "city": "Doha",
    "country": "Qatar",
    "lat": 25.2731,
    "lng": 51.6080,
    "timezone": "Asia/Qatar"
  },
  {
    "iata": "HKG",
    "name": "Hong Kong International Airport",
    "city": "Hong Kong",
    "country": "Hong Kong",
    "lat": 22.3080,
    "lng": 113.9185,
    "timezone": "Asia/Hong_Kong"
  },
  {
    "iata": "SIN",
    "name": "Singapore Changi Airport",
    "city": "Singapore",
    "country": "Singapore",
    "lat": 1.3644,
    "lng": 103.9915,
    "timezone": "Asia/Singapore"
  },
  {
    "iata": "NRT",
    "name": "Narita International Airport",
    "city": "Tokyo",
    "country": "Japan",
    "lat": 35.7647,
    "lng": 140.3864,
    "timezone": "Asia/Tokyo"
  },
  {
    "iata": "HND",
    "name": "Tokyo Haneda Airport",
    "city": "Tokyo",
    "country": "Japan",
    "lat": 35.5494,
    "lng": 139.7798,
    "timezone": "Asia/Tokyo"
  },
  {
    "iata": "ICN",
    "name": "Incheon International Airport",
    "city": "Seoul",
    "country": "South Korea",
    "lat": 37.4602,
    "lng": 126.4407,
    "timezone": "Asia/Seoul"
  },
  {
    "iata": "PEK",
    "name": "Beijing Capital International Airport",
    "city": "Beijing",
    "country": "China",
    "lat": 40.0799,
    "lng": 116.6031,
    "timezone": "Asia/Shanghai"
  },
  {
    "iata": "PVG",
    "name": "Shanghai Pudong International Airport",
    "city": "Shanghai",
    "country": "China",
    "lat": 31.1443,
    "lng": 121.8083,
    "timezone": "Asia/Shanghai"
  },
  {
    "iata": "BKK",
    "name": "Suvarnabhumi Airport",
    "city": "Bangkok",
    "country": "Thailand",
    "lat": 13.6900,
    "lng": 100.7501,
    "timezone": "Asia/Bangkok"
  },
  {
    "iata": "DEL",
    "name": "Indira Gandhi International Airport",
    "city": "New Delhi",
    "country": "India",
    "lat": 28.5562,
    "lng": 77.1000,
    "timezone": "Asia/Kolkata"
  },
  {
    "iata": "BOM",
    "name": "Chhatrapati Shivaji Maharaj International Airport",
    "city": "Mumbai",
    "country": "India",
    "lat": 19.0896,
    "lng": 72.8656,
    "timezone": "Asia/Kolkata"
  },
  {
    "iata": "SYD",
    "name": "Sydney Kingsford Smith Airport",
    "city": "Sydney",
    "country": "Australia",
    "lat": -33.9399,
    "lng": 151.1753,
    "timezone": "Australia/Sydney"
  },
  {
    "iata": "MEL",
    "name": "Melbourne Airport",
    "city": "Melbourne",
    "country": "Australia",
    "lat": -37.6690,
    "lng": 144.8410,
    "timezone": "Australia/Melbourne"
  },
  {
    "iata": "AKL",
    "name": "Auckland Airport",
    "city": "Auckland",
    "country": "New Zealand",
    "lat": -37.0082,
    "lng": 174.7850,
    "timezone": "Pacific/Auckland"
  },
  {
    "iata": "YYZ",
    "name": "Toronto Pearson International Airport",
    "city": "Toronto",
    "country": "Canada",
    "lat": 43.6777,
    "lng": -79.6248,
    "timezone": "America/Toronto"
  },
  {
    "iata": "YVR",
    "name": "Vancouver International Airport",
    "city": "Vancouver",
    "country": "Canada",
    "lat": 49.1947,
    "lng": -123.1839,
    "timezone": "America/Vancouver"
  },
  {
    "iata": "YUL",
    "name": "Montréal-Pierre Elliott Trudeau International Airport",
    "city": "Montreal",
    "country": "Canada",
    "lat": 45.4657,
    "lng": -73.7450,
    "timezone": "America/Toronto"
  },
  {
    "iata": "GRU",
    "name": "São Paulo/Guarulhos International Airport",
    "city": "São Paulo",
    "country": "Brazil",
    "lat": -23.4356,
    "lng": -46.4731,
    "timezone": "America/Sao_Paulo"
  },
  {
    "iata": "EZE",
    "name": "Ministro Pistarini International Airport",
    "city": "Buenos Aires",
    "country": "Argentina",
    "lat": -34.8222,
    "lng": -58.5358,
    "timezone": "America/Argentina/Buenos_Aires"
  },
  {
    "iata": "MEX",
    "name": "Mexico City International Airport",
    "city": "Mexico City",
    "country": "Mexico",
    "lat": 19.4363,
    "lng": -99.0721,
    "timezone": "America/Mexico_City"
  },
  {
    "iata": "LIM",
    "name": "Jorge Chávez International Airport",
    "city": "Lima",
    "country": "Peru",
    "lat": -12.0219,
    "lng": -77.1143,
    "timezone": "America/Lima"
  },
  {
    "iata": "GIG",
    "name": "Rio de Janeiro/Galeão International Airport",
    "city": "Rio de Janeiro",
    "country": "Brazil",
    "lat": -22.8099,
    "lng": -43.2505,
    "timezone": "America/Sao_Paulo"
  },
  {
    "iata": "CPT",
    "name": "Cape Town International Airport",
    "city": "Cape Town",
    "country": "South Africa",
    "lat": -33.9715,
    "lng": 18.6021,
    "timezone": "Africa/Johannesburg"
  },
  {
    "iata": "JNB",
    "name": "O.R. Tambo International Airport",
    "city": "Johannesburg",
    "country": "South Africa",
    "lat": -26.1367,
    "lng": 28.2411,
    "timezone": "Africa/Johannesburg"
  },
  {
    "iata": "CAI",
    "name": "Cairo International Airport",
    "city": "Cairo",
    "country": "Egypt",
    "lat": 30.1219,
    "lng": 31.4056,
    "timezone": "Africa/Cairo"
  },
  {
    "iata": "ZRH",
    "name": "Zurich Airport",
    "city": "Zurich",
    "country": "Switzerland",
    "lat": 47.4647,
    "lng": 8.5492,
    "timezone": "Europe/Zurich"
  },
  {
    "iata": "VIE",
    "name": "Vienna International Airport",
    "city": "Vienna",
    "country": "Austria",
    "lat": 48.1103,
    "lng": 16.5697,
    "timezone": "Europe/Vienna"
  },
  {
    "iata": "ARN",
    "name": "Stockholm Arlanda Airport",
    "city": "Stockholm",
    "country": "Sweden",
    "lat": 59.6519,
    "lng": 17.9186,
    "timezone": "Europe/Stockholm"
  },
  {
    "iata": "CPH",
    "name": "Copenhagen Airport",
    "city": "Copenhagen",
    "country": "Denmark",
    "lat": 55.6180,
    "lng": 12.6508,
    "timezone": "Europe/Copenhagen"
  },
  {
    "iata": "OSL",
    "name": "Oslo Airport",
    "city": "Oslo",
    "country": "Norway",
    "lat": 60.1939,
    "lng": 11.1004,
    "timezone": "Europe/Oslo"
  },
  {
    "iata": "HEL",
    "name": "Helsinki-Vantaa Airport",
    "city": "Helsinki",
    "country": "Finland",
    "lat": 60.3172,
    "lng": 24.9633,
    "timezone": "Europe/Helsinki"
  },
  {
    "iata": "DUB",
    "name": "Dublin Airport",
    "city": "Dublin",
    "country": "Ireland",
    "lat": 53.4213,
    "lng": -6.2701,
    "timezone": "Europe/Dublin"
  },
  {
    "iata": "EDI",
    "name": "Edinburgh Airport",
    "city": "Edinburgh",
    "country": "United Kingdom",
    "lat": 55.9500,
    "lng": -3.3725,
    "timezone": "Europe/London"
  },
  {
    "iata": "MAN",
    "name": "Manchester Airport",
    "city": "Manchester",
    "country": "United Kingdom",
    "lat": 53.3537,
    "lng": -2.2750,
    "timezone": "Europe/London"
  },
  {
    "iata": "LIS",
    "name": "Lisbon Portela Airport",
    "city": "Lisbon",
    "country": "Portugal",
    "lat": 38.7813,
    "lng": -9.1357,
    "timezone": "Europe/Lisbon"
  },
  {
    "iata": "ATH",
    "name": "Athens International Airport",
    "city": "Athens",
    "country": "Greece",
    "lat": 37.9364,
    "lng": 23.9445,
    "timezone": "Europe/Athens"
  },
  {
    "iata": "PRG",
    "name": "Václav Havel Airport Prague",
    "city": "Prague",
    "country": "Czech Republic",
    "lat": 50.1008,
    "lng": 14.2600,
    "timezone": "Europe/Prague"
  },
  {
    "iata": "WAW",
    "name": "Warsaw Chopin Airport",
    "city": "Warsaw",
    "country": "Poland",
    "lat": 52.1657,
    "lng": 20.9671,
    "timezone": "Europe/Warsaw"
  },
  {
    "iata": "BUD",
    "name": "Budapest Ferenc Liszt International Airport",
    "city": "Budapest",
    "country": "Hungary",
    "lat": 47.4398,
    "lng": 19.2619,
    "timezone": "Europe/Budapest"
  },
  {
    "iata": "SVO",
    "name": "Sheremetyevo International Airport",
    "city": "Moscow",
    "country": "Russia",
    "lat": 55.9726,
    "lng": 37.4146,
    "timezone": "Europe/Moscow"
  },
  {
    "iata": "AUH",
    "name": "Abu Dhabi International Airport",
    "city": "Abu Dhabi",
    "country": "United Arab Emirates",
    "lat": 24.4330,
    "lng": 54.6511,
    "timezone": "Asia/Dubai"
  },
  {
    "iata": "TLV",
    "name": "Ben Gurion Airport",
    "city": "Tel Aviv",
    "country": "Israel",
    "lat": 32.0114,
    "lng": 34.8867,
    "timezone": "Asia/Jerusalem"
  },
  {
    "iata": "KUL",
    "name": "Kuala Lumpur International Airport",
    "city": "Kuala Lumpur",
    "country": "Malaysia",
    "lat": 2.7456,
    "lng": 101.7099,
    "timezone": "Asia/Kuala_Lumpur"
  },
  {
    "iata": "CGK",
    "name": "Soekarno-Hatta International Airport",
    "city": "Jakarta",
    "country": "Indonesia",
    "lat": -6.1256,
    "lng": 106.6559,
    "timezone": "Asia/Jakarta"
  },
  {
    "iata": "MNL",
    "name": "Ninoy Aquino International Airport",
    "city": "Manila",
    "country": "Philippines",
    "lat": 14.5086,
    "lng": 121.0194,
    "timezone": "Asia/Manila"
  },
  {
    "iata": "TPE",
    "name": "Taiwan Taoyuan International Airport",
    "city": "Taipei",
    "country": "Taiwan",
    "lat": 25.0797,
    "lng": 121.2342,
    "timezone": "Asia/Taipei"
  },
  {
    "iata": "CAN",
    "name": "Guangzhou Baiyun International Airport",
    "city": "Guangzhou",
    "country": "China",
    "lat": 23.3924,
    "lng": 113.2988,
    "timezone": "Asia/Shanghai"
  },
  {
    "iata": "SZX",
    "name": "Shenzhen Bao'an International Airport",
    "city": "Shenzhen",
    "country": "China",
    "lat": 22.6393,
    "lng": 113.8108,
    "timezone": "Asia/Shanghai"
  },
  {
    "iata": "KIX",
    "name": "Kansai International Airport",
    "city": "Osaka",
    "country": "Japan",
    "lat": 34.4347,
    "lng": 135.2441,
    "timezone": "Asia/Tokyo"
  },
  {
    "iata": "FUK",
    "name": "Fukuoka Airport",
    "city": "Fukuoka",
    "country": "Japan",
    "lat": 33.5859,
    "lng": 130.4511,
    "timezone": "Asia/Tokyo"
  },
  {
    "iata": "BNE",
    "name": "Brisbane Airport",
    "city": "Brisbane",
    "country": "Australia",
    "lat": -27.3942,
    "lng": 153.1218,
    "timezone": "Australia/Brisbane"
  },
  {
    "iata": "PER",
    "name": "Perth Airport",
    "city": "Perth",
    "country": "Australia",
    "lat": -31.9403,
    "lng": 115.9672,
    "timezone": "Australia/Perth"
  },
  {
    "iata": "PHX",
    "name": "Phoenix Sky Harbor International Airport",
    "city": "Phoenix",
    "country": "United States",
    "lat": 33.4352,
    "lng": -112.0101,
    "timezone": "America/Phoenix"
  },
  {
    "iata": "IAH",
    "name": "George Bush Intercontinental Airport",
    "city": "Houston",
    "country": "United States",
    "lat": 29.9902,
    "lng": -95.3368,
    "timezone": "America/Chicago"
  },
  {
    "iata": "MCO",
    "name": "Orlando International Airport",
    "city": "Orlando",
    "country": "United States",
    "lat": 28.4312,
    "lng": -81.3081,
    "timezone": "America/New_York"
  },
  {
    "iata": "SAN",
    "name": "San Diego International Airport",
    "city": "San Diego",
    "country": "United States",
    "lat": 32.7336,
    "lng": -117.1897,
    "timezone": "America/Los_Angeles"
  },
  {
    "iata": "PDX",
    "name": "Portland International Airport",
    "city": "Portland",
    "country": "United States",
    "lat": 45.5898,
    "lng": -122.5951,
    "timezone": "America/Los_Angeles"
  },
  {
    "iata": "MSP",
    "name": "Minneapolis-St Paul International Airport",
    "city": "Minneapolis",
    "country": "United States",
    "lat": 44.8848,
    "lng": -93.2223,
    "timezone": "America/Chicago"
  },
  {
    "iata": "DTW",
    "name": "Detroit Metropolitan Wayne County Airport",
    "city": "Detroit",
    "country": "United States",
    "lat": 42.2124,
    "lng": -83.3534,
    "timezone": "America/Detroit"
  },
  {
    "iata": "CLT",
    "name": "Charlotte Douglas International Airport",
    "city": "Charlotte",
    "country": "United States",
    "lat": 35.2144,
    "lng": -80.9473,
    "timezone": "America/New_York"
  },
  {
    "iata": "PHL",
    "name": "Philadelphia International Airport",
    "city": "Philadelphia",
    "country": "United States",
    "lat": 39.8744,
    "lng": -75.2424,
    "timezone": "America/New_York"
  },
  {
    "iata": "EWR",
    "name": "Newark Liberty International Airport",
    "city": "Newark",
    "country": "United States",
    "lat": 40.6895,
    "lng": -74.1745,
    "timezone": "America/New_York"
  },
  {
    "iata": "SLC",
    "name": "Salt Lake City International Airport",
    "city": "Salt Lake City",
    "country": "United States",
    "lat": 40.7899,
    "lng": -111.9791,
    "timezone": "America/Denver"
  },
  {
    "iata": "AUS",
    "name": "Austin-Bergstrom International Airport",
    "city": "Austin",
    "country": "United States",
    "lat": 30.1975,
    "lng": -97.6664,
    "timezone": "America/Chicago"
  }
]
